{
"type": "FeatureCollection",
"name": "mcfarland_vels",
"crs": { "type": "name", "properties": { "name": "urn:ogc:def:crs:OGC:1.3:CRS84" } },
"features": [
{ "type": "Feature", "properties": { "station": "LDOLP ", "lon": -63.970879, "lat": -23.81874, "e_vel": 3.64, "n_vel": 0.74, "e_err": 0.53, "n_err": 0.18, "WRMSe": 1.67, "WRMSn": 1.12, "RMSe": 3.74, "RMSn": 1.52 }, "geometry": { "type": "Point", "coordinates": [ -63.97088, -23.81874 ] } },
{ "type": "Feature", "properties": { "station": "GOLGP ", "lon": -65.760778, "lat": -24.690588, "e_vel": 9.61, "n_vel": 1.47, "e_err": 0.14, "n_err": 0.24, "WRMSe": 1.91, "WRMSn": 1.52, "RMSe": 2.25, "RMSn": 4.4 }, "geometry": { "type": "Point", "coordinates": [ -65.76078, -24.69059 ] } },
{ "type": "Feature", "properties": { "station": "SRSAP ", "lon": -65.953294, "lat": -24.449791, "e_vel": 10.64, "n_vel": 2.41, "e_err": 0.14, "n_err": 0.26, "WRMSe": 2.05, "WRMSn": 1.5, "RMSe": 2.46, "RMSn": 5.62 }, "geometry": { "type": "Point", "coordinates": [ -65.95329, -24.44979 ] } },
{ "type": "Feature", "properties": { "station": "SALCP ", "lon": -66.322453, "lat": -24.213089, "e_vel": 12.36, "n_vel": 3.43, "e_err": 0.14, "n_err": 0.21, "WRMSe": 1.66, "WRMSn": 1.26, "RMSe": 2.77, "RMSn": 5.12 }, "geometry": { "type": "Point", "coordinates": [ -66.32245, -24.21309 ] } },
{ "type": "Feature", "properties": { "station": "TUZGP ", "lon": -66.516545, "lat": -24.03162, "e_vel": 13.26, "n_vel": 3.88, "e_err": 0.23, "n_err": 0.16, "WRMSe": 2.0, "WRMSn": 1.08, "RMSe": 3.91, "RMSn": 3.35 }, "geometry": { "type": "Point", "coordinates": [ -66.51654, -24.03162 ] } },
{ "type": "Feature", "properties": { "station": "CHACI ", "lon": -58.959693, "lat": -27.42044, "e_vel": 0.0, "n_vel": 0.07, "e_err": 0.71, "n_err": 0.49, "WRMSe": 2.14, "WRMSn": 1.5, "RMSe": 4.22, "RMSn": 3.43 }, "geometry": { "type": "Point", "coordinates": [ -58.95969, -27.42044 ] } },
{ "type": "Feature", "properties": { "station": "CJNTCH ", "lon": -67.760575, "lat": -23.027491, "e_vel": 15.29, "n_vel": 4.76, "e_err": 0.46, "n_err": 0.38, "WRMSe": 1.16, "WRMSn": 0.88, "RMSe": 1.77, "RMSn": 1.78 }, "geometry": { "type": "Point", "coordinates": [ -67.76058, -23.02749 ] } },
{ "type": "Feature", "properties": { "station": "UNSAU ", "lon": -65.407643, "lat": -24.727456, "e_vel": 3.95, "n_vel": 1.18, "e_err": 0.3, "n_err": 0.18, "WRMSe": 2.03, "WRMSn": 1.48, "RMSe": 4.28, "RMSn": 3.25 }, "geometry": { "type": "Point", "coordinates": [ -65.40764, -24.72746 ] } },
{ "type": "Feature", "properties": { "station": "ALUMI ", "lon": -66.596628, "lat": -27.323427, "e_vel": 0.23, "n_vel": -1.94, "e_err": 0.32, "n_err": 0.14, "WRMSe": 1.81, "WRMSn": 1.19, "RMSe": 4.98, "RMSn": 2.53 }, "geometry": { "type": "Point", "coordinates": [ -66.59663, -27.32343 ] } },
{ "type": "Feature", "properties": { "station": "CATAI ", "lon": -65.774121, "lat": -28.470985, "e_vel": 4.74, "n_vel": -2.34, "e_err": 0.12, "n_err": 0.41, "WRMSe": 1.94, "WRMSn": 2.29, "RMSe": 2.06, "RMSn": 8.0 }, "geometry": { "type": "Point", "coordinates": [ -65.77412, -28.47098 ] } },
{ "type": "Feature", "properties": { "station": "CBAACH ", "lon": -68.448149, "lat": -22.746369, "e_vel": 17.74, "n_vel": 6.68, "e_err": 0.17, "n_err": 0.21, "WRMSe": 1.21, "WRMSn": 0.9, "RMSe": 2.18, "RMSn": 3.33 }, "geometry": { "type": "Point", "coordinates": [ -68.44815, -22.74637 ] } },
{ "type": "Feature", "properties": { "station": "CDLCCH ", "lon": -69.761524, "lat": -22.189637, "e_vel": 27.69, "n_vel": 7.03, "e_err": 0.31, "n_err": 0.27, "WRMSe": 1.33, "WRMSn": 1.06, "RMSe": 3.77, "RMSn": 3.93 }, "geometry": { "type": "Point", "coordinates": [ -69.76152, -22.18964 ] } },
{ "type": "Feature", "properties": { "station": "CMPNCA ", "lon": -70.685823, "lat": -29.028204, "e_vel": 23.26, "n_vel": 9.64, "e_err": 0.38, "n_err": 0.41, "WRMSe": 1.61, "WRMSn": 1.19, "RMSe": 4.42, "RMSn": 5.12 }, "geometry": { "type": "Point", "coordinates": [ -70.68582, -29.0282 ] } },
{ "type": "Feature", "properties": { "station": "COLOPL ", "lon": -67.803979, "lat": -22.167384, "e_vel": 16.87, "n_vel": 6.03, "e_err": 0.24, "n_err": 0.16, "WRMSe": 2.32, "WRMSn": 1.3, "RMSe": 4.83, "RMSn": 3.68 }, "geometry": { "type": "Point", "coordinates": [ -67.80398, -22.16738 ] } },
{ "type": "Feature", "properties": { "station": "COPOU ", "lon": -70.338235, "lat": -27.384526, "e_vel": 23.03, "n_vel": 9.16, "e_err": 0.45, "n_err": 0.46, "WRMSe": 1.68, "WRMSn": 1.21, "RMSe": 4.94, "RMSn": 5.52 }, "geometry": { "type": "Point", "coordinates": [ -70.33823, -27.38453 ] } },
{ "type": "Feature", "properties": { "station": "CTLRCH ", "lon": -70.096828, "lat": -21.964163, "e_vel": 31.64, "n_vel": 9.35, "e_err": 0.31, "n_err": 0.09, "WRMSe": 1.4, "WRMSn": 0.99, "RMSe": 5.05, "RMSn": 1.74 }, "geometry": { "type": "Point", "coordinates": [ -70.09683, -21.96416 ] } },
{ "type": "Feature", "properties": { "station": "JBALI ", "lon": -65.622749, "lat": -27.584408, "e_vel": 4.01, "n_vel": -0.86, "e_err": 0.3, "n_err": 0.24, "WRMSe": 2.7, "WRMSn": 2.46, "RMSe": 5.94, "RMSn": 5.29 }, "geometry": { "type": "Point", "coordinates": [ -65.62275, -27.58441 ] } },
{ "type": "Feature", "properties": { "station": "JRGNCH ", "lon": -70.574909, "lat": -23.288917, "e_vel": 33.61, "n_vel": 11.03, "e_err": 0.19, "n_err": 0.2, "WRMSe": 1.52, "WRMSn": 1.31, "RMSe": 4.28, "RMSn": 5.42 }, "geometry": { "type": "Point", "coordinates": [ -70.57491, -23.28892 ] } },
{ "type": "Feature", "properties": { "station": "LCENPL ", "lon": -68.602602, "lat": -25.326061, "e_vel": 18.87, "n_vel": 6.04, "e_err": 0.18, "n_err": 0.26, "WRMSe": 1.62, "WRMSn": 1.28, "RMSe": 2.64, "RMSn": 4.55 }, "geometry": { "type": "Point", "coordinates": [ -68.6026, -25.32606 ] } },
{ "type": "Feature", "properties": { "station": "LLSTPL ", "lon": -68.520186, "lat": -25.165463, "e_vel": 18.83, "n_vel": 10.14, "e_err": 0.51, "n_err": 0.35, "WRMSe": 1.39, "WRMSn": 0.98, "RMSe": 1.63, "RMSn": 1.36 }, "geometry": { "type": "Point", "coordinates": [ -68.52019, -25.16546 ] } },
{ "type": "Feature", "properties": { "station": "MCLACH ", "lon": -70.247502, "lat": -22.745815, "e_vel": 29.12, "n_vel": 9.96, "e_err": 0.34, "n_err": 0.2, "WRMSe": 1.36, "WRMSn": 0.9, "RMSe": 4.32, "RMSn": 3.04 }, "geometry": { "type": "Point", "coordinates": [ -70.2475, -22.74582 ] } },
{ "type": "Feature", "properties": { "station": "SOCMPL ", "lon": -68.295165, "lat": -24.454613, "e_vel": 19.7, "n_vel": 7.11, "e_err": 0.31, "n_err": 0.42, "WRMSe": 1.75, "WRMSn": 1.31, "RMSe": 2.25, "RMSn": 3.71 }, "geometry": { "type": "Point", "coordinates": [ -68.29516, -24.45461 ] } },
{ "type": "Feature", "properties": { "station": "SRGDCH ", "lon": -69.347835, "lat": -22.871137, "e_vel": 23.94, "n_vel": 6.78, "e_err": 0.39, "n_err": 0.17, "WRMSe": 1.4, "WRMSn": 0.89, "RMSe": 5.24, "RMSn": 2.66 }, "geometry": { "type": "Point", "coordinates": [ -69.34784, -22.87114 ] } },
{ "type": "Feature", "properties": { "station": "TAVAI ", "lon": -65.710008, "lat": -26.85298, "e_vel": 3.77, "n_vel": 0.0, "e_err": 0.61, "n_err": 0.24, "WRMSe": 2.45, "WRMSn": 1.42, "RMSe": 1.77, "RMSn": 0.85 }, "geometry": { "type": "Point", "coordinates": [ -65.71001, -26.85298 ] } },
{ "type": "Feature", "properties": { "station": "TEROI ", "lon": -64.256781, "lat": -27.789145, "e_vel": 2.69, "n_vel": -0.12, "e_err": 0.13, "n_err": 0.16, "WRMSe": 1.54, "WRMSn": 1.28, "RMSe": 2.51, "RMSn": 3.39 }, "geometry": { "type": "Point", "coordinates": [ -64.25678, -27.78915 ] } },
{ "type": "Feature", "properties": { "station": "TRNCI ", "lon": -65.282175, "lat": -26.230217, "e_vel": 4.89, "n_vel": -0.2, "e_err": 0.52, "n_err": 0.54, "WRMSe": 1.6, "WRMSn": 1.13, "RMSe": 0.83, "RMSn": 1.03 }, "geometry": { "type": "Point", "coordinates": [ -65.28217, -26.23022 ] } },
{ "type": "Feature", "properties": { "station": "UTURPL ", "lon": -67.205542, "lat": -22.242006, "e_vel": 15.15, "n_vel": 5.38, "e_err": 0.23, "n_err": 0.23, "WRMSe": 1.72, "WRMSn": 1.22, "RMSe": 4.17, "RMSn": 4.76 }, "geometry": { "type": "Point", "coordinates": [ -67.20554, -22.24201 ] } },
{ "type": "Feature", "properties": { "station": "VLZLCH ", "lon": -69.964689, "lat": -23.117231, "e_vel": 27.57, "n_vel": 8.48, "e_err": 0.17, "n_err": 0.15, "WRMSe": 1.27, "WRMSn": 0.94, "RMSe": 1.77, "RMSn": 1.83 }, "geometry": { "type": "Point", "coordinates": [ -69.96469, -23.11723 ] } },
{ "type": "Feature", "properties": { "station": "YCBAI ", "lon": -63.679985, "lat": -22.017103, "e_vel": 2.1, "n_vel": 0.82, "e_err": 0.73, "n_err": 0.31, "WRMSe": 1.51, "WRMSn": 1.1, "RMSe": 1.2, "RMSn": 0.74 }, "geometry": { "type": "Point", "coordinates": [ -63.67999, -22.0171 ] } }
]
}
