{
"type": "FeatureCollection",
"name": "vill_vels",
"crs": { "type": "name", "properties": { "name": "urn:ogc:def:crs:OGC:1.3:CRS84" } },
"features": [
{ "type": "Feature", "properties": { "site": "BAYO", "longitude": -81.0659, "latitude": -5.7989, "e_vel": 2.98, "n_vel": -3.17, "e_err": 0.36, "n_err": 0.28, "corr": 0.0, "days": 1649, "span": 5.2 }, "geometry": { "type": "Point", "coordinates": [ -81.0659, -5.7989 ] } },
{ "type": "Feature", "properties": { "site": "CAZL", "longitude": -76.4734, "latitude": -13.0201, "e_vel": 16.99, "n_vel": 3.96, "e_err": 0.32, "n_err": 0.3, "corr": 0.0, "days": 1137, "span": 3.3 }, "geometry": { "type": "Point", "coordinates": [ -76.4734, -13.0201 ] } },
{ "type": "Feature", "properties": { "site": "HUAR", "longitude": -78.1808, "latitude": -10.1027, "e_vel": 10.28, "n_vel": 0.76, "e_err": 0.32, "n_err": 0.23, "corr": 0.0, "days": 1541, "span": 4.6 }, "geometry": { "type": "Point", "coordinates": [ -78.1808, -10.1027 ] } },
{ "type": "Feature", "properties": { "site": "IGPL", "longitude": -76.9442, "latitude": -12.0551, "e_vel": 20.36, "n_vel": 4.17, "e_err": 0.31, "n_err": 0.27, "corr": 0.0, "days": 872, "span": 5.2 }, "geometry": { "type": "Point", "coordinates": [ -76.9442, -12.0551 ] } },
{ "type": "Feature", "properties": { "site": "SALY", "longitude": -78.9782, "latitude": -8.2274, "e_vel": 4.92, "n_vel": -2.17, "e_err": 0.37, "n_err": 0.19, "corr": 0.0, "days": 1376, "span": 4.8 }, "geometry": { "type": "Point", "coordinates": [ -78.9782, -8.2274 ] } },
{ "type": "Feature", "properties": { "site": "SLRZ", "longitude": -77.2114, "latitude": -12.0814, "e_vel": 22.77, "n_vel": 4.74, "e_err": 0.57, "n_err": 0.31, "corr": 0.0, "days": 1184, "span": 3.3 }, "geometry": { "type": "Point", "coordinates": [ -77.2114, -12.0814 ] } },
{ "type": "Feature", "properties": { "site": "APU1", "longitude": -79.7244, "latitude": -6.2634, "e_vel": 4.06, "n_vel": -1.57, "e_err": 0.9, "n_err": 0.75, "corr": -0.01, "days": 7, "span": 2.0 }, "geometry": { "type": "Point", "coordinates": [ -79.7244, -6.2634 ] } },
{ "type": "Feature", "properties": { "site": "AYRA", "longitude": -77.7103, "latitude": -9.1464, "e_vel": 10.18, "n_vel": -0.51, "e_err": 0.69, "n_err": 0.54, "corr": -0.02, "days": 8, "span": 4.0 }, "geometry": { "type": "Point", "coordinates": [ -77.7103, -9.1464 ] } },
{ "type": "Feature", "properties": { "site": "CASM", "longitude": -78.3068, "latitude": -9.454, "e_vel": 7.15, "n_vel": -1.69, "e_err": 0.73, "n_err": 0.57, "corr": -0.02, "days": 9, "span": 4.0 }, "geometry": { "type": "Point", "coordinates": [ -78.3068, -9.454 ] } },
{ "type": "Feature", "properties": { "site": "CBLA", "longitude": -79.305, "latitude": -6.6246, "e_vel": 3.84, "n_vel": -2.87, "e_err": 0.59, "n_err": 0.48, "corr": -0.02, "days": 10, "span": 4.0 }, "geometry": { "type": "Point", "coordinates": [ -79.305, -6.6246 ] } },
{ "type": "Feature", "properties": { "site": "CCHO", "longitude": -80.9618, "latitude": -5.1665, "e_vel": 5.19, "n_vel": -2.08, "e_err": 0.94, "n_err": 0.77, "corr": 0.0, "days": 9, "span": 4.0 }, "geometry": { "type": "Point", "coordinates": [ -80.9618, -5.1665 ] } },
{ "type": "Feature", "properties": { "site": "CHAC", "longitude": -78.6778, "latitude": -8.5568, "e_vel": 6.82, "n_vel": -1.62, "e_err": 0.61, "n_err": 0.48, "corr": -0.01, "days": 9, "span": 4.0 }, "geometry": { "type": "Point", "coordinates": [ -78.6778, -8.5568 ] } },
{ "type": "Feature", "properties": { "site": "CHRI", "longitude": -76.8535, "latitude": -10.7278, "e_vel": 13.02, "n_vel": 4.02, "e_err": 0.61, "n_err": 0.48, "corr": -0.11, "days": 10, "span": 4.0 }, "geometry": { "type": "Point", "coordinates": [ -76.8535, -10.7278 ] } },
{ "type": "Feature", "properties": { "site": "CHSQ", "longitude": -77.5797, "latitude": -10.2654, "e_vel": 10.65, "n_vel": 1.67, "e_err": 0.49, "n_err": 0.39, "corr": 0.63, "days": 9, "span": 4.0 }, "geometry": { "type": "Point", "coordinates": [ -77.5797, -10.2654 ] } },
{ "type": "Feature", "properties": { "site": "CHUL", "longitude": -80.1583, "latitude": -5.0919, "e_vel": 3.26, "n_vel": -2.62, "e_err": 0.87, "n_err": 0.7, "corr": -0.01, "days": 7, "span": 4.0 }, "geometry": { "type": "Point", "coordinates": [ -80.1583, -5.0919 ] } },
{ "type": "Feature", "properties": { "site": "ETEN", "longitude": -79.8583, "latitude": -6.9474, "e_vel": 5.88, "n_vel": -2.69, "e_err": 0.54, "n_err": 0.44, "corr": -0.03, "days": 13, "span": 4.0 }, "geometry": { "type": "Point", "coordinates": [ -79.8583, -6.9474 ] } },
{ "type": "Feature", "properties": { "site": "GYVT", "longitude": -78.7489, "latitude": -8.0551, "e_vel": 5.75, "n_vel": -2.74, "e_err": 0.54, "n_err": 0.23, "corr": 0.58, "days": 9, "span": 4.0 }, "geometry": { "type": "Point", "coordinates": [ -78.7489, -8.0551 ] } },
{ "type": "Feature", "properties": { "site": "HCHO", "longitude": -77.6026, "latitude": -11.152, "e_vel": 20.67, "n_vel": 3.14, "e_err": 0.68, "n_err": 0.52, "corr": -0.04, "days": 9, "span": 4.0 }, "geometry": { "type": "Point", "coordinates": [ -77.6026, -11.152 ] } },
{ "type": "Feature", "properties": { "site": "HUAL", "longitude": -77.5741, "latitude": -9.5454, "e_vel": 6.64, "n_vel": 0.89, "e_err": 0.62, "n_err": 0.49, "corr": -0.01, "days": 9, "span": 4.0 }, "geometry": { "type": "Point", "coordinates": [ -77.5741, -9.5454 ] } },
{ "type": "Feature", "properties": { "site": "LORC", "longitude": -80.594, "latitude": -4.7612, "e_vel": 1.9, "n_vel": -0.96, "e_err": 1.18, "n_err": 0.98, "corr": 0.03, "days": 4, "span": 4.0 }, "geometry": { "type": "Point", "coordinates": [ -80.594, -4.7612 ] } },
{ "type": "Feature", "properties": { "site": "MOR1", "longitude": -79.9876, "latitude": -6.5223, "e_vel": 5.04, "n_vel": -0.75, "e_err": 1.16, "n_err": 0.97, "corr": -0.03, "days": 6, "span": 2.0 }, "geometry": { "type": "Point", "coordinates": [ -79.9876, -6.5223 ] } },
{ "type": "Feature", "properties": { "site": "MORA", "longitude": -80.022, "latitude": -5.5444, "e_vel": 4.45, "n_vel": -2.82, "e_err": 0.93, "n_err": 0.75, "corr": 0.0, "days": 9, "span": 4.0 }, "geometry": { "type": "Point", "coordinates": [ -80.022, -5.5444 ] } },
{ "type": "Feature", "properties": { "site": "OYON", "longitude": -76.6881, "latitude": -10.6471, "e_vel": 11.89, "n_vel": 4.03, "e_err": 0.85, "n_err": 0.68, "corr": -0.05, "days": 7, "span": 2.0 }, "geometry": { "type": "Point", "coordinates": [ -76.6881, -10.6471 ] } },
{ "type": "Feature", "properties": { "site": "PAST", "longitude": -77.3503, "latitude": -9.9715, "e_vel": 9.09, "n_vel": 1.69, "e_err": 0.67, "n_err": 0.52, "corr": -0.04, "days": 7, "span": 4.0 }, "geometry": { "type": "Point", "coordinates": [ -77.3503, -9.9715 ] } },
{ "type": "Feature", "properties": { "site": "PCMY", "longitude": -79.5524, "latitude": -7.3826, "e_vel": 4.17, "n_vel": -2.96, "e_err": 0.6, "n_err": 0.49, "corr": -0.04, "days": 9, "span": 4.0 }, "geometry": { "type": "Point", "coordinates": [ -79.5524, -7.3826 ] } },
{ "type": "Feature", "properties": { "site": "PLOB", "longitude": -81.2888, "latitude": -4.4527, "e_vel": 3.62, "n_vel": -0.49, "e_err": 0.59, "n_err": 0.48, "corr": -0.01, "days": 7, "span": 4.0 }, "geometry": { "type": "Point", "coordinates": [ -81.2888, -4.4527 ] } },
{ "type": "Feature", "properties": { "site": "PRMG", "longitude": -77.8519, "latitude": -10.6512, "e_vel": 15.86, "n_vel": 2.36, "e_err": 0.61, "n_err": 0.49, "corr": -0.02, "days": 8, "span": 4.0 }, "geometry": { "type": "Point", "coordinates": [ -77.8519, -10.6512 ] } },
{ "type": "Feature", "properties": { "site": "PSAL", "longitude": -80.9623, "latitude": -3.9577, "e_vel": 9.72, "n_vel": -0.33, "e_err": 0.6, "n_err": 0.5, "corr": -0.01, "days": 9, "span": 3.4 }, "geometry": { "type": "Point", "coordinates": [ -80.9623, -3.9577 ] } },
{ "type": "Feature", "properties": { "site": "PSNT", "longitude": -78.6537, "latitude": -8.9904, "e_vel": 5.65, "n_vel": -1.77, "e_err": 0.72, "n_err": 0.56, "corr": 0.02, "days": 9, "span": 4.0 }, "geometry": { "type": "Point", "coordinates": [ -78.6537, -8.9904 ] } },
{ "type": "Feature", "properties": { "site": "PTPO", "longitude": -79.6281, "latitude": -6.7402, "e_vel": 6.03, "n_vel": -2.08, "e_err": 0.59, "n_err": 0.48, "corr": -0.01, "days": 8, "span": 4.0 }, "geometry": { "type": "Point", "coordinates": [ -79.6281, -6.7402 ] } },
{ "type": "Feature", "properties": { "site": "PUMA", "longitude": -79.4644, "latitude": -7.7125, "e_vel": 5.53, "n_vel": -3.01, "e_err": 0.64, "n_err": 0.52, "corr": -0.01, "days": 8, "span": 4.0 }, "geometry": { "type": "Point", "coordinates": [ -79.4644, -7.7125 ] } },
{ "type": "Feature", "properties": { "site": "SAYA", "longitude": -77.171, "latitude": -11.0891, "e_vel": 17.59, "n_vel": 4.01, "e_err": 0.61, "n_err": 0.48, "corr": -0.05, "days": 11, "span": 4.0 }, "geometry": { "type": "Point", "coordinates": [ -77.171, -11.0891 ] } },
{ "type": "Feature", "properties": { "site": "SCH1", "longitude": -80.4911, "latitude": -6.1119, "e_vel": 3.44, "n_vel": -2.45, "e_err": 0.81, "n_err": 0.66, "corr": -0.01, "days": 12, "span": 4.0 }, "geometry": { "type": "Point", "coordinates": [ -80.4911, -6.1119 ] } },
{ "type": "Feature", "properties": { "site": "SCH2", "longitude": -80.5746, "latitude": -5.6346, "e_vel": 4.02, "n_vel": -3.52, "e_err": 1.04, "n_err": 0.85, "corr": -0.01, "days": 13, "span": 4.0 }, "geometry": { "type": "Point", "coordinates": [ -80.5746, -5.6346 ] } },
{ "type": "Feature", "properties": { "site": "STCL", "longitude": -79.0793, "latitude": -7.2547, "e_vel": 5.54, "n_vel": -2.34, "e_err": 0.59, "n_err": 0.49, "corr": -0.04, "days": 12, "span": 4.0 }, "geometry": { "type": "Point", "coordinates": [ -79.0793, -7.2547 ] } },
{ "type": "Feature", "properties": { "site": "STIS", "longitude": -77.9886, "latitude": -9.5323, "e_vel": 6.96, "n_vel": -0.06, "e_err": 0.59, "n_err": 0.47, "corr": -0.03, "days": 9, "span": 4.0 }, "geometry": { "type": "Point", "coordinates": [ -77.9886, -9.5323 ] } },
{ "type": "Feature", "properties": { "site": "SUNW", "longitude": -81.0554, "latitude": -4.6934, "e_vel": 2.33, "n_vel": -0.33, "e_err": 0.19, "n_err": 0.4, "corr": 0.44, "days": 7, "span": 4.0 }, "geometry": { "type": "Point", "coordinates": [ -81.0554, -4.6934 ] } },
{ "type": "Feature", "properties": { "site": "CUYC", "longitude": -78.855, "latitude": -6.0122, "e_vel": 3.88, "n_vel": -2.96, "e_err": 0.55, "n_err": 0.45, "corr": -0.04, "days": 18, "span": 4.1 }, "geometry": { "type": "Point", "coordinates": [ -78.855, -6.0122 ] } },
{ "type": "Feature", "properties": { "site": "HNCO", "longitude": -76.3225, "latitude": -9.9188, "e_vel": 6.38, "n_vel": 2.2, "e_err": 1.19, "n_err": 0.99, "corr": 0.0, "days": 15, "span": 3.6 }, "geometry": { "type": "Point", "coordinates": [ -76.3225, -9.9188 ] } },
{ "type": "Feature", "properties": { "site": "LMAS", "longitude": -76.4986, "latitude": -6.4379, "e_vel": 3.35, "n_vel": 1.58, "e_err": 0.65, "n_err": 0.49, "corr": -0.02, "days": 10, "span": 4.1 }, "geometry": { "type": "Point", "coordinates": [ -76.4986, -6.4379 ] } },
{ "type": "Feature", "properties": { "site": "LRYA", "longitude": -75.9156, "latitude": -11.5355, "e_vel": 13.01, "n_vel": 3.09, "e_err": 1.15, "n_err": 0.9, "corr": -0.04, "days": 12, "span": 3.8 }, "geometry": { "type": "Point", "coordinates": [ -75.9156, -11.5355 ] } },
{ "type": "Feature", "properties": { "site": "MOYB", "longitude": -77.002, "latitude": -6.0683, "e_vel": 3.01, "n_vel": -0.01, "e_err": 0.66, "n_err": 0.51, "corr": -0.1, "days": 12, "span": 4.1 }, "geometry": { "type": "Point", "coordinates": [ -77.002, -6.0683 ] } },
{ "type": "Feature", "properties": { "site": "MRCD", "longitude": -75.3216, "latitude": -11.0749, "e_vel": 9.25, "n_vel": 1.65, "e_err": 0.63, "n_err": 0.53, "corr": 0.02, "days": 16, "span": 3.8 }, "geometry": { "type": "Point", "coordinates": [ -75.3216, -11.0749 ] } },
{ "type": "Feature", "properties": { "site": "SALJ", "longitude": -75.2132, "latitude": -8.8346, "e_vel": 2.17, "n_vel": 1.35, "e_err": 0.68, "n_err": 0.54, "corr": -0.01, "days": 13, "span": 3.6 }, "geometry": { "type": "Point", "coordinates": [ -75.2132, -8.8346 ] } },
{ "type": "Feature", "properties": { "site": "SATI", "longitude": -74.6422, "latitude": -11.2583, "e_vel": 8.33, "n_vel": 1.5, "e_err": 0.63, "n_err": 0.51, "corr": -0.02, "days": 16, "span": 3.8 }, "geometry": { "type": "Point", "coordinates": [ -74.6422, -11.2583 ] } },
{ "type": "Feature", "properties": { "site": "SNDM", "longitude": -76.5303, "latitude": -11.9283, "e_vel": 20.15, "n_vel": 3.35, "e_err": 1.24, "n_err": 0.93, "corr": -0.07, "days": 12, "span": 3.8 }, "geometry": { "type": "Point", "coordinates": [ -76.5303, -11.9283 ] } },
{ "type": "Feature", "properties": { "site": "TAPO", "longitude": -75.5488, "latitude": -11.4216, "e_vel": 12.63, "n_vel": 0.25, "e_err": 1.04, "n_err": 0.81, "corr": 0.04, "days": 14, "span": 3.8 }, "geometry": { "type": "Point", "coordinates": [ -75.5488, -11.4216 ] } },
{ "type": "Feature", "properties": { "site": "YRMG", "longitude": -76.1302, "latitude": -5.8966, "e_vel": 2.91, "n_vel": 0.97, "e_err": 1.17, "n_err": 0.92, "corr": -0.03, "days": 8, "span": 4.1 }, "geometry": { "type": "Point", "coordinates": [ -76.1302, -5.8966 ] } },
{ "type": "Feature", "properties": { "site": "ANCN", "longitude": -77.15, "latitude": -11.7766, "e_vel": 20.95, "n_vel": 3.68, "e_err": 0.3, "n_err": 0.23, "corr": 0.0, "days": 1441, "span": 5.2 }, "geometry": { "type": "Point", "coordinates": [ -77.15, -11.7766 ] } },
{ "type": "Feature", "properties": { "site": "CUZC", "longitude": -71.9593, "latitude": -13.5204, "e_vel": 5.26, "n_vel": 1.0, "e_err": 0.27, "n_err": 0.23, "corr": 0.0, "days": 935, "span": 5.8 }, "geometry": { "type": "Point", "coordinates": [ -71.9593, -13.5204 ] } },
{ "type": "Feature", "properties": { "site": "HUAN", "longitude": -75.3214, "latitude": -12.0424, "e_vel": 9.17, "n_vel": 0.26, "e_err": 0.81, "n_err": 0.54, "corr": -0.01, "days": 1894, "span": 6.2 }, "geometry": { "type": "Point", "coordinates": [ -75.3214, -12.0424 ] } },
{ "type": "Feature", "properties": { "site": "IQTS", "longitude": -73.2747, "latitude": -3.7673, "e_vel": 0.04, "n_vel": 0.58, "e_err": 0.35, "n_err": 0.26, "corr": 0.0, "days": 1014, "span": 6.6 }, "geometry": { "type": "Point", "coordinates": [ -73.2747, -3.7673 ] } },
{ "type": "Feature", "properties": { "site": "JICA", "longitude": -76.8757, "latitude": -11.9524, "e_vel": 20.86, "n_vel": 3.95, "e_err": 0.58, "n_err": 0.47, "corr": -0.02, "days": 886, "span": 3.7 }, "geometry": { "type": "Point", "coordinates": [ -76.8757, -11.9524 ] } },
{ "type": "Feature", "properties": { "site": "PUCL", "longitude": -74.5738, "latitude": -8.3839, "e_vel": 1.06, "n_vel": 0.08, "e_err": 0.71, "n_err": 0.56, "corr": -0.01, "days": 675, "span": 2.6 }, "geometry": { "type": "Point", "coordinates": [ -74.5738, -8.3839 ] } },
{ "type": "Feature", "properties": { "site": "PUER", "longitude": -69.187, "latitude": -12.586, "e_vel": 1.32, "n_vel": 2.3, "e_err": 0.93, "n_err": 0.62, "corr": 0.0, "days": 1081, "span": 5.6 }, "geometry": { "type": "Point", "coordinates": [ -69.187, -12.586 ] } },
{ "type": "Feature", "properties": { "site": "AM01", "longitude": -77.8728, "latitude": -6.2351, "e_vel": 3.28, "n_vel": -0.65, "e_err": 1.85, "n_err": 1.08, "corr": 0.0, "days": 946, "span": 3.2 }, "geometry": { "type": "Point", "coordinates": [ -77.8728, -6.2351 ] } },
{ "type": "Feature", "properties": { "site": "AN01", "longitude": -77.5271, "latitude": -9.5312, "e_vel": 5.81, "n_vel": 1.62, "e_err": 0.95, "n_err": 0.97, "corr": 0.0, "days": 1161, "span": 3.4 }, "geometry": { "type": "Point", "coordinates": [ -77.5271, -9.5312 ] } },
{ "type": "Feature", "properties": { "site": "AN02", "longitude": -78.5298, "latitude": -9.1284, "e_vel": 5.93, "n_vel": -2.07, "e_err": 0.46, "n_err": 0.39, "corr": 0.0, "days": 632, "span": 3.7 }, "geometry": { "type": "Point", "coordinates": [ -78.5298, -9.1284 ] } },
{ "type": "Feature", "properties": { "site": "AP01", "longitude": -72.8782, "latitude": -13.6384, "e_vel": 7.05, "n_vel": 1.71, "e_err": 0.51, "n_err": 0.43, "corr": -0.01, "days": 755, "span": 3.1 }, "geometry": { "type": "Point", "coordinates": [ -72.8782, -13.6384 ] } },
{ "type": "Feature", "properties": { "site": "AQ02", "longitude": -72.0157, "latitude": -17.0296, "e_vel": 16.85, "n_vel": -0.51, "e_err": 0.33, "n_err": 0.26, "corr": 0.0, "days": 860, "span": 3.8 }, "geometry": { "type": "Point", "coordinates": [ -72.0157, -17.0296 ] } },
{ "type": "Feature", "properties": { "site": "AQ03", "longitude": -72.4922, "latitude": -16.0762, "e_vel": 8.92, "n_vel": -0.35, "e_err": 0.19, "n_err": 0.14, "corr": -0.01, "days": 439, "span": 2.5 }, "geometry": { "type": "Point", "coordinates": [ -72.4922, -16.0762 ] } },
{ "type": "Feature", "properties": { "site": "AY01", "longitude": -74.2266, "latitude": -13.1593, "e_vel": 5.45, "n_vel": -0.31, "e_err": 0.56, "n_err": 0.36, "corr": -0.01, "days": 1156, "span": 3.8 }, "geometry": { "type": "Point", "coordinates": [ -74.2266, -13.1593 ] } },
{ "type": "Feature", "properties": { "site": "AY02", "longitude": -73.7813, "latitude": -15.0171, "e_vel": 15.43, "n_vel": 4.6, "e_err": 0.51, "n_err": 0.43, "corr": -0.01, "days": 250, "span": 3.1 }, "geometry": { "type": "Point", "coordinates": [ -73.7813, -15.0171 ] } },
{ "type": "Feature", "properties": { "site": "CJ01", "longitude": -78.5094, "latitude": -7.1469, "e_vel": 4.75, "n_vel": -1.04, "e_err": 0.54, "n_err": 0.37, "corr": 0.0, "days": 1018, "span": 3.7 }, "geometry": { "type": "Point", "coordinates": [ -78.5094, -7.1469 ] } },
{ "type": "Feature", "properties": { "site": "CZ02", "longitude": -72.0811, "latitude": -14.4495, "e_vel": 5.48, "n_vel": 0.28, "e_err": 0.58, "n_err": 0.49, "corr": 0.0, "days": 530, "span": 2.5 }, "geometry": { "type": "Point", "coordinates": [ -72.0811, -14.4495 ] } },
{ "type": "Feature", "properties": { "site": "CZ03", "longitude": -73.8294, "latitude": -12.5197, "e_vel": 3.66, "n_vel": 0.51, "e_err": 0.49, "n_err": 0.35, "corr": -0.01, "days": 789, "span": 3.2 }, "geometry": { "type": "Point", "coordinates": [ -73.8294, -12.5197 ] } },
{ "type": "Feature", "properties": { "site": "HC01", "longitude": -76.2352, "latitude": -9.9323, "e_vel": 7.96, "n_vel": 3.13, "e_err": 0.53, "n_err": 0.44, "corr": -0.05, "days": 781, "span": 3.3 }, "geometry": { "type": "Point", "coordinates": [ -76.2352, -9.9323 ] } },
{ "type": "Feature", "properties": { "site": "HV01", "longitude": -74.9677, "latitude": -12.7865, "e_vel": 7.04, "n_vel": -2.2, "e_err": 0.52, "n_err": 0.44, "corr": -0.01, "days": 505, "span": 3.0 }, "geometry": { "type": "Point", "coordinates": [ -74.9677, -12.7865 ] } },
{ "type": "Feature", "properties": { "site": "IC01", "longitude": -75.7349, "latitude": -14.0753, "e_vel": 8.44, "n_vel": -1.31, "e_err": 0.14, "n_err": 0.1, "corr": 0.18, "days": 1006, "span": 3.8 }, "geometry": { "type": "Point", "coordinates": [ -75.7349, -14.0753 ] } },
{ "type": "Feature", "properties": { "site": "IC02", "longitude": -76.2004, "latitude": -13.7086, "e_vel": 18.05, "n_vel": 3.24, "e_err": 0.66, "n_err": 0.55, "corr": -0.01, "days": 573, "span": 3.6 }, "geometry": { "type": "Point", "coordinates": [ -76.2004, -13.7086 ] } },
{ "type": "Feature", "properties": { "site": "IC03", "longitude": -74.9374, "latitude": -14.8266, "e_vel": 13.13, "n_vel": 5.24, "e_err": 0.54, "n_err": 0.45, "corr": -0.01, "days": 745, "span": 3.2 }, "geometry": { "type": "Point", "coordinates": [ -74.9374, -14.8266 ] } },
{ "type": "Feature", "properties": { "site": "JU01", "longitude": -75.2113, "latitude": -12.0618, "e_vel": 9.57, "n_vel": -0.6, "e_err": 0.92, "n_err": 0.72, "corr": -0.02, "days": 492, "span": 1.6 }, "geometry": { "type": "Point", "coordinates": [ -75.2113, -12.0618 ] } },
{ "type": "Feature", "properties": { "site": "LI01", "longitude": -77.0169, "latitude": -12.103, "e_vel": 21.05, "n_vel": 4.31, "e_err": 0.31, "n_err": 0.25, "corr": 0.0, "days": 1534, "span": 5.0 }, "geometry": { "type": "Point", "coordinates": [ -77.0169, -12.103 ] } },
{ "type": "Feature", "properties": { "site": "LI02", "longitude": -77.1724, "latitude": -11.77, "e_vel": 20.25, "n_vel": 3.71, "e_err": 0.48, "n_err": 0.41, "corr": 0.0, "days": 578, "span": 3.4 }, "geometry": { "type": "Point", "coordinates": [ -77.1724, -11.77 ] } },
{ "type": "Feature", "properties": { "site": "LI03", "longitude": -76.7625, "latitude": -11.9736, "e_vel": 18.93, "n_vel": 3.65, "e_err": 0.56, "n_err": 0.47, "corr": -0.01, "days": 654, "span": 2.7 }, "geometry": { "type": "Point", "coordinates": [ -76.7625, -11.9736 ] } },
{ "type": "Feature", "properties": { "site": "LI04", "longitude": -76.7974, "latitude": -12.4818, "e_vel": 20.8, "n_vel": 4.55, "e_err": 0.39, "n_err": 0.41, "corr": 0.0, "days": 1032, "span": 3.6 }, "geometry": { "type": "Point", "coordinates": [ -76.7974, -12.4818 ] } },
{ "type": "Feature", "properties": { "site": "LI05", "longitude": -77.7804, "latitude": -10.6963, "e_vel": 16.27, "n_vel": 2.51, "e_err": 0.59, "n_err": 0.5, "corr": 0.0, "days": 720, "span": 2.3 }, "geometry": { "type": "Point", "coordinates": [ -77.7804, -10.6963 ] } },
{ "type": "Feature", "properties": { "site": "LL01", "longitude": -79.0394, "latitude": -8.0983, "e_vel": 3.25, "n_vel": -2.58, "e_err": 0.62, "n_err": 0.52, "corr": 0.01, "days": 979, "span": 3.1 }, "geometry": { "type": "Point", "coordinates": [ -79.0394, -8.0983 ] } },
{ "type": "Feature", "properties": { "site": "MQ01", "longitude": -70.9223, "latitude": -17.1906, "e_vel": 12.46, "n_vel": 2.51, "e_err": 0.5, "n_err": 0.42, "corr": 0.0, "days": 719, "span": 3.7 }, "geometry": { "type": "Point", "coordinates": [ -70.9223, -17.1906 ] } },
{ "type": "Feature", "properties": { "site": "MQ02", "longitude": -71.3421, "latitude": -17.6345, "e_vel": 20.86, "n_vel": 2.04, "e_err": 0.49, "n_err": 0.41, "corr": 0.0, "days": 923, "span": 3.3 }, "geometry": { "type": "Point", "coordinates": [ -71.3421, -17.6345 ] } },
{ "type": "Feature", "properties": { "site": "PA01", "longitude": -76.2521, "latitude": -10.6655, "e_vel": 9.67, "n_vel": 1.72, "e_err": 0.21, "n_err": 0.15, "corr": -0.04, "days": 745, "span": 3.1 }, "geometry": { "type": "Point", "coordinates": [ -76.2521, -10.6655 ] } },
{ "type": "Feature", "properties": { "site": "PI01", "longitude": -80.6278, "latitude": -5.1799, "e_vel": 4.35, "n_vel": -2.02, "e_err": 0.64, "n_err": 0.43, "corr": 0.0, "days": 991, "span": 3.6 }, "geometry": { "type": "Point", "coordinates": [ -80.6278, -5.1799 ] } },
{ "type": "Feature", "properties": { "site": "PI03", "longitude": -81.2692, "latitude": -4.5871, "e_vel": 2.85, "n_vel": -1.28, "e_err": 0.53, "n_err": 0.45, "corr": 0.0, "days": 534, "span": 3.0 }, "geometry": { "type": "Point", "coordinates": [ -81.2692, -4.5871 ] } },
{ "type": "Feature", "properties": { "site": "PU02", "longitude": -70.1794, "latitude": -15.5144, "e_vel": 6.95, "n_vel": -0.8, "e_err": 0.57, "n_err": 0.44, "corr": -0.01, "days": 967, "span": 3.3 }, "geometry": { "type": "Point", "coordinates": [ -70.1794, -15.5144 ] } },
{ "type": "Feature", "properties": { "site": "TC01", "longitude": -70.2568, "latitude": -18.0045, "e_vel": 15.68, "n_vel": 3.93, "e_err": 0.52, "n_err": 0.44, "corr": 0.0, "days": 925, "span": 2.9 }, "geometry": { "type": "Point", "coordinates": [ -70.2568, -18.0045 ] } },
{ "type": "Feature", "properties": { "site": "TU01", "longitude": -80.4524, "latitude": -3.5572, "e_vel": 6.79, "n_vel": -1.63, "e_err": 0.46, "n_err": 0.58, "corr": 0.0, "days": 1131, "span": 3.9 }, "geometry": { "type": "Point", "coordinates": [ -80.4524, -3.5572 ] } },
{ "type": "Feature", "properties": { "site": "UC01", "longitude": -74.5312, "latitude": -8.3839, "e_vel": 1.43, "n_vel": 0.44, "e_err": 0.76, "n_err": 0.6, "corr": -0.03, "days": 444, "span": 3.0 }, "geometry": { "type": "Point", "coordinates": [ -74.5312, -8.3839 ] } },
{ "type": "Feature", "properties": { "site": "AREQ", "longitude": -71.4928, "latitude": -16.4655, "e_vel": 6.59, "n_vel": -0.8, "e_err": 0.26, "n_err": 0.16, "corr": 0.0, "days": 6387, "span": 19.8 }, "geometry": { "type": "Point", "coordinates": [ -71.4928, -16.4655 ] } },
{ "type": "Feature", "properties": { "site": "CALL", "longitude": -77.1493, "latitude": -12.0629, "e_vel": 21.55, "n_vel": 3.41, "e_err": 0.37, "n_err": 0.26, "corr": -0.03, "days": 1410, "span": 5.8 }, "geometry": { "type": "Point", "coordinates": [ -77.1493, -12.0629 ] } },
{ "type": "Feature", "properties": { "site": "CUEC", "longitude": -79.0025, "latitude": -2.8833, "e_vel": 5.29, "n_vel": -2.29, "e_err": 0.31, "n_err": 0.27, "corr": 0.0, "days": 1429, "span": 4.4 }, "geometry": { "type": "Point", "coordinates": [ -79.0025, -2.8833 ] } },
{ "type": "Feature", "properties": { "site": "LJEC", "longitude": -79.1985, "latitude": -3.9883, "e_vel": 3.4, "n_vel": -1.81, "e_err": 1.29, "n_err": 0.4, "corr": 0.0, "days": 1477, "span": 4.5 }, "geometry": { "type": "Point", "coordinates": [ -79.1985, -3.9883 ] } },
{ "type": "Feature", "properties": { "site": "ALAM", "longitude": -80.0252, "latitude": -4.0198, "e_vel": 1.87, "n_vel": -4.37, "e_err": 3.84, "n_err": 1.99, "corr": 0.07, "days": 2, "span": 4.0 }, "geometry": { "type": "Point", "coordinates": [ -80.0252, -4.0198 ] } },
{ "type": "Feature", "properties": { "site": "AMAL", "longitude": -79.4266, "latitude": -4.5812, "e_vel": 4.54, "n_vel": -2.5, "e_err": 0.52, "n_err": 0.34, "corr": 0.0, "days": 8, "span": 16.0 }, "geometry": { "type": "Point", "coordinates": [ -79.4266, -4.5812 ] } },
{ "type": "Feature", "properties": { "site": "AREN", "longitude": -80.0685, "latitude": -3.5591, "e_vel": 4.73, "n_vel": -1.23, "e_err": 1.03, "n_err": 0.65, "corr": 0.03, "days": 5, "span": 13.7 }, "geometry": { "type": "Point", "coordinates": [ -80.0685, -3.5591 ] } },
{ "type": "Feature", "properties": { "site": "CAJA", "longitude": -79.237, "latitude": -2.7531, "e_vel": 3.72, "n_vel": -3.05, "e_err": 4.47, "n_err": 2.29, "corr": -0.34, "days": 7, "span": 15.3 }, "geometry": { "type": "Point", "coordinates": [ -79.237, -2.7531 ] } },
{ "type": "Feature", "properties": { "site": "CLPI", "longitude": -79.32, "latitude": -3.2549, "e_vel": 4.22, "n_vel": -3.69, "e_err": 1.65, "n_err": 1.32, "corr": -0.01, "days": 2, "span": 4.2 }, "geometry": { "type": "Point", "coordinates": [ -79.32, -3.2549 ] } },
{ "type": "Feature", "properties": { "site": "GONZ", "longitude": -79.4307, "latitude": -4.2264, "e_vel": 3.03, "n_vel": -2.08, "e_err": 0.46, "n_err": 0.33, "corr": 0.03, "days": 7, "span": 15.3 }, "geometry": { "type": "Point", "coordinates": [ -79.4307, -4.2264 ] } },
{ "type": "Feature", "properties": { "site": "HONA", "longitude": -79.1599, "latitude": -3.4766, "e_vel": 3.91, "n_vel": -2.21, "e_err": 0.87, "n_err": 0.43, "corr": 0.01, "days": 10, "span": 17.0 }, "geometry": { "type": "Point", "coordinates": [ -79.1599, -3.4766 ] } },
{ "type": "Feature", "properties": { "site": "MACH", "longitude": -79.9685, "latitude": -3.2565, "e_vel": 4.8, "n_vel": -0.81, "e_err": 0.75, "n_err": 0.41, "corr": -0.05, "days": 7, "span": 15.2 }, "geometry": { "type": "Point", "coordinates": [ -79.9685, -3.2565 ] } },
{ "type": "Feature", "properties": { "site": "NARI", "longitude": -79.5365, "latitude": -3.1414, "e_vel": 2.55, "n_vel": -2.2, "e_err": 0.51, "n_err": 0.34, "corr": -0.02, "days": 8, "span": 15.2 }, "geometry": { "type": "Point", "coordinates": [ -79.5365, -3.1414 ] } },
{ "type": "Feature", "properties": { "site": "SNTI", "longitude": -78.0102, "latitude": -3.0495, "e_vel": 2.92, "n_vel": -2.8, "e_err": 1.15, "n_err": 1.26, "corr": 0.0, "days": 5, "span": 16.5 }, "geometry": { "type": "Point", "coordinates": [ -78.0102, -3.0495 ] } },
{ "type": "Feature", "properties": { "site": "SOZO", "longitude": -79.7924, "latitude": -4.3338, "e_vel": 3.4, "n_vel": -2.4, "e_err": 0.84, "n_err": 0.37, "corr": -0.16, "days": 7, "span": 15.4 }, "geometry": { "type": "Point", "coordinates": [ -79.7924, -4.3338 ] } },
{ "type": "Feature", "properties": { "site": "ZAMO", "longitude": -78.932, "latitude": -4.0548, "e_vel": 3.03, "n_vel": -1.73, "e_err": 0.31, "n_err": 0.26, "corr": 0.0, "days": 56, "span": 17.1 }, "geometry": { "type": "Point", "coordinates": [ -78.932, -4.0548 ] } }
]
}
